[{"fips":"01001","location":"Autauga County, Alabama, United States","lon":-86.6319403,"lat":32.5165255,"trumpd":0.0,"bidenj":0.0,"ab_votes":0,"ab_trumpd":0.0,"ab_bidenj":0.0,"last_updated":"","layer":"4.02"},{"fips":"01003","location":"Baldwin County, Alabama, United States","lon":-87.7324392,"lat":30.5677527,"trumpd":0.0,"bidenj":0.0,"ab_votes":0,"ab_trumpd":0.0,"ab_bidenj":0.0,"last_updated":"","layer":"4.02"},{"fips":"01005","location":"Barbour County, Alabama, United States","lon":-85.4032078,"lat":31.8589311,"trumpd":0.0,"bidenj":0.0,"ab_votes":0,"ab_trumpd":0.0,"ab_bidenj":0.0,"last_updated":"","layer":"4.02"},{"fips":"01007","location":"Bibb County, Alabama, United States","lon":-87.1227088,"lat":32.971079,"trumpd":0.0,"bidenj":0.0,"ab_votes":571,"ab_trumpd":0.0,"ab_bidenj":0.0,"last_updated":"","layer":"4.02"},{"fips":"01009","location":"Blount County, Alabama, United States","lon":-86.5702002,"lat":33.9510169,"trumpd":0.0,"bidenj":0.0,"ab_votes":0,"ab_trumpd":0.0,"ab_bidenj":0.0,"last_updated":"","layer":"4.02"},{"fips":"01011","location":"Bullock County, Alabama, 36089, United States","lon":-85.7091657,"lat":32.09929,"trumpd":0.0,"bidenj":0.0,"ab_votes":0,"ab_trumpd":0.0,"ab_bidenj":0.0,"last_updated":"","layer":"4.02"},{"fips":"01013","location":"Butler, Choctaw County, Alabama, 36904, United States","lon":-88.2219652,"lat":32.0895908,"trumpd":0.0,"bidenj":0.0,"ab_votes":1053,"ab_trumpd":0.0,"ab_bidenj":0.0,"last_updated":"","layer":"4.02"},{"fips":"01015","location":"Calhoun County, Alabama, United States","lon":-85.8315666,"lat":33.7514505,"trumpd":0.0,"bidenj":0.0,"ab_votes":0,"ab_trumpd":0.0,"ab_bidenj":0.0,"last_updated":"","layer":"4.02"},{"fips":"01017","location":"Chambers County, Alabama, United States","lon":-85.3866953,"lat":32.8901658,"trumpd":0.0,"bidenj":0.0,"ab_votes":0,"ab_trumpd":0.0,"ab_bidenj":0.0,"last_updated":"","layer":"4.02"},{"fips":"01019","location":"Cherokee County, Alabama, United States","lon":-85.6004514,"lat":34.1142554,"trumpd":0.0,"bidenj":0.0,"ab_votes":0,"ab_trumpd":0.0,"ab_bidenj":0.0,"last_updated":"","layer":"4.02"},{"fips":"01021","location":"Chilton County, Alabama, United States","lon":-86.7032845,"lat":32.8522565,"trumpd":0.0,"bidenj":0.0,"ab_votes":0,"ab_trumpd":0.0,"ab_bidenj":0.0,"last_updated":"","layer":"4.02"},{"fips":"01023","location":"Choctaw County, Alabama, United States","lon":-88.2821326,"lat":31.9908095,"trumpd":0.0,"bidenj":0.0,"ab_votes":0,"ab_trumpd":0.0,"ab_bidenj":0.0,"last_updated":"","layer":"4.02"},{"fips":"01025","location":"Clarke County, Alabama, United States","lon":-87.8192486,"lat":31.659134,"trumpd":0.0,"bidenj":0.0,"ab_votes":0,"ab_trumpd":0.0,"ab_bidenj":0.0,"last_updated":"","layer":"4.02"},{"fips":"01027","location":"Clay, Jefferson County, Alabama, United States","lon":-86.5866694494,"lat":33.715158,"trumpd":0.0,"bidenj":0.0,"ab_votes":557,"ab_trumpd":0.0,"ab_bidenj":0.0,"last_updated":"","layer":"4.02"},{"fips":"01029","location":"Cleburne County, Alabama, United States","lon":-85.5017359,"lat":33.6506958,"trumpd":0.0,"bidenj":0.0,"ab_votes":0,"ab_trumpd":0.0,"ab_bidenj":0.0,"last_updated":"","layer":"4.02"},{"fips":"01031","location":"Coffee County, Alabama, United States","lon":-85.9870669,"lat":31.3629619,"trumpd":0.0,"bidenj":0.0,"ab_votes":0,"ab_trumpd":0.0,"ab_bidenj":0.0,"last_updated":"","layer":"4.02"},{"fips":"01033","location":"Colbert County, Alabama, United States","lon":-87.7921769,"lat":34.6473396,"trumpd":0.0,"bidenj":0.0,"ab_votes":1510,"ab_trumpd":0.0,"ab_bidenj":0.0,"last_updated":"","layer":"4.02"},{"fips":"01035","location":"Conecuh County, Alabama, United States","lon":-86.9437104,"lat":31.3966783,"trumpd":0.0,"bidenj":0.0,"ab_votes":0,"ab_trumpd":0.0,"ab_bidenj":0.0,"last_updated":"","layer":"4.02"},{"fips":"01037","location":"Coosa County, Alabama, United States","lon":-86.2327497,"lat":32.9181762,"trumpd":0.0,"bidenj":0.0,"ab_votes":364,"ab_trumpd":0.0,"ab_bidenj":0.0,"last_updated":"","layer":"4.02"},{"fips":"01039","location":"Covington County, Alabama, United States","lon":-86.4597236,"lat":31.196549,"trumpd":0.0,"bidenj":0.0,"ab_votes":1521,"ab_trumpd":0.0,"ab_bidenj":0.0,"last_updated":"","layer":"4.02"},{"fips":"01041","location":"Crenshaw County, Alabama, United States","lon":-86.3244009,"lat":31.6809362,"trumpd":0.0,"bidenj":0.0,"ab_votes":0,"ab_trumpd":0.0,"ab_bidenj":0.0,"last_updated":"","layer":"4.02"},{"fips":"01043","location":"Cullman County, Alabama, United States","lon":-86.8779268,"lat":34.1335332,"trumpd":0.0,"bidenj":0.0,"ab_votes":0,"ab_trumpd":0.0,"ab_bidenj":0.0,"last_updated":"","layer":"4.02"},{"fips":"01045","location":"Dale County, Alabama, United States","lon":-85.623763,"lat":31.3940969,"trumpd":0.0,"bidenj":0.0,"ab_votes":0,"ab_trumpd":0.0,"ab_bidenj":0.0,"last_updated":"","layer":"4.02"},{"fips":"01047","location":"Dallas County, Alabama, United States","lon":-87.1046643,"lat":32.3117968,"trumpd":0.0,"bidenj":0.0,"ab_votes":0,"ab_trumpd":0.0,"ab_bidenj":0.0,"last_updated":"","layer":"4.02"},{"fips":"01049","location":"De Kalb Vocational School, George Wallace Drive Southeast, Rainsville, DeKalb County, Alabama, 35986, United States","lon":-85.8402491,"lat":34.4889759,"trumpd":0.0,"bidenj":0.0,"ab_votes":0,"ab_trumpd":0.0,"ab_bidenj":0.0,"last_updated":"","layer":"4.02"},{"fips":"01051","location":"Elmore County, Alabama, United States","lon":-86.125195,"lat":32.5801231,"trumpd":0.0,"bidenj":0.0,"ab_votes":0,"ab_trumpd":0.0,"ab_bidenj":0.0,"last_updated":"","layer":"4.02"},{"fips":"01053","location":"Escambia County, Alabama, United States","lon":-87.1070947,"lat":31.1168422,"trumpd":0.0,"bidenj":0.0,"ab_votes":0,"ab_trumpd":0.0,"ab_bidenj":0.0,"last_updated":"","layer":"4.02"},{"fips":"01055","location":"Etowah County, Alabama, United States","lon":-86.022147,"lat":34.0371404,"trumpd":0.0,"bidenj":0.0,"ab_votes":0,"ab_trumpd":0.0,"ab_bidenj":0.0,"last_updated":"","layer":"4.02"},{"fips":"01057","location":"Fayette County, Alabama, United States","lon":-87.7419088,"lat":33.7303493,"trumpd":0.0,"bidenj":0.0,"ab_votes":477,"ab_trumpd":0.0,"ab_bidenj":0.0,"last_updated":"","layer":"4.02"},{"fips":"01059","location":"Franklin County, Alabama, United States","lon":-87.8339064,"lat":34.440962,"trumpd":0.0,"bidenj":0.0,"ab_votes":0,"ab_trumpd":0.0,"ab_bidenj":0.0,"last_updated":"","layer":"4.02"},{"fips":"01061","location":"Geneva County, Alabama, United States","lon":-85.803014,"lat":31.0862933,"trumpd":0.0,"bidenj":0.0,"ab_votes":0,"ab_trumpd":0.0,"ab_bidenj":0.0,"last_updated":"","layer":"4.02"},{"fips":"01063","location":"Greene County, Alabama, 35462, United States","lon":-87.9915392,"lat":32.8620514,"trumpd":0.0,"bidenj":0.0,"ab_votes":1561,"ab_trumpd":0.0,"ab_bidenj":0.0,"last_updated":"","layer":"4.02"},{"fips":"01065","location":"Hale County, Alabama, United States","lon":-87.6561668,"lat":32.7412417,"trumpd":0.0,"bidenj":0.0,"ab_votes":1474,"ab_trumpd":0.0,"ab_bidenj":0.0,"last_updated":"","layer":"4.02"},{"fips":"01067","location":"Henry County, Alabama, United States","lon":-85.2447377,"lat":31.4838041,"trumpd":0.0,"bidenj":0.0,"ab_votes":0,"ab_trumpd":0.0,"ab_bidenj":0.0,"last_updated":"","layer":"4.02"}]